{
"type": "FeatureCollection",
"crs": { "type": "name", "properties": { "name": "urn:ogc:def:crs:EPSG::26986" } },
"features": [
{ "type": "Feature", "properties": { "SCHID": "02740005", "NAME": "Capuano Early Childhood Center", "ADDRESS": "150 Glen Street", "TOWN_MAIL": "Somerville", "TOWN": "SOMERVILLE", "ZIPCODE": "02145", "PHONE": "617-629-5480", "GRADES": "PK,K,01", "TYPE": "ELE", "TYPE_DESC": "Public Elementary", "DIST_NAME": "Somerville", "DIST_CODE": "02740000", "MA_ADDR_ID": 3211909, "TYPE_DESC2": null }, "geometry": { "type": "Point", "coordinates": [ 234032.837399996817112, 903636.381400000303984 ] } },
{ "type": "Feature", "properties": { "SCHID": "02740510", "NAME": "Full Circle High School", "ADDRESS": "81 Highland Ave", "TOWN_MAIL": "Somerville", "TOWN": "SOMERVILLE", "ZIPCODE": "02143", "PHONE": "617-629-5640", "GRADES": "09,10,11,12", "TYPE": "SEC", "TYPE_DESC": "Public Secondary", "DIST_NAME": "Somerville", "DIST_CODE": "02740000", "MA_ADDR_ID": 3222555, "TYPE_DESC2": null }, "geometry": { "type": "Point", "coordinates": [ 233295.000600002706051, 904109.302600000053644 ] } },
{ "type": "Feature", "properties": { "SCHID": "02740410", "NAME": "Next Wave Junior High School", "ADDRESS": "81 Highland Ave", "TOWN_MAIL": "Somerville", "TOWN": "SOMERVILLE", "ZIPCODE": "02143", "PHONE": "617-629-5640", "GRADES": "06,07,08", "TYPE": "MID", "TYPE_DESC": "Public Middle", "DIST_NAME": "Somerville", "DIST_CODE": "02740000", "MA_ADDR_ID": 3222555, "TYPE_DESC2": null }, "geometry": { "type": "Point", "coordinates": [ 233295.000600002706051, 904109.302600000053644 ] } },
{ "type": "Feature", "properties": { "SCHID": "02740015", "NAME": "Benjamin G Brown School", "ADDRESS": "201 Willow Avenue", "TOWN_MAIL": "Somerville", "TOWN": "SOMERVILLE", "ZIPCODE": "02144", "PHONE": "617-629-5620", "GRADES": "K,01,02,03,04,05", "TYPE": "ELE", "TYPE_DESC": "Public Elementary", "DIST_NAME": "Somerville", "DIST_CODE": "02740000", "MA_ADDR_ID": 3210220, "TYPE_DESC2": null }, "geometry": { "type": "Point", "coordinates": [ 231778.80120000243187, 905270.838799998164177 ] } },
{ "type": "Feature", "properties": { "SCHID": "02740115", "NAME": "West Somerville Neighborhood School", "ADDRESS": "177 Powderhouse Blvd", "TOWN_MAIL": "Somerville", "TOWN": "SOMERVILLE", "ZIPCODE": "02144", "PHONE": "617-625-6600", "GRADES": "PK,K,01,02,03,04,05,06,07,08", "TYPE": "ELE", "TYPE_DESC": "Public Elementary", "DIST_NAME": "Somerville", "DIST_CODE": "02740000", "MA_ADDR_ID": 3219130, "TYPE_DESC2": null }, "geometry": { "type": "Point", "coordinates": [ 230748.946400001645088, 906250.905000001192093 ] } },
{ "type": "Feature", "properties": { "SCHID": "02740505", "NAME": "Somerville High School", "ADDRESS": "81 Highland Avenue", "TOWN_MAIL": "Somerville", "TOWN": "SOMERVILLE", "ZIPCODE": "02143", "PHONE": "617-625-6600", "GRADES": "09,10,11,12", "TYPE": "SEC", "TYPE_DESC": "Public Secondary", "DIST_NAME": "Somerville", "DIST_CODE": "02740000", "MA_ADDR_ID": 3222555, "TYPE_DESC2": null }, "geometry": { "type": "Point", "coordinates": [ 233295.000600002706051, 904109.302600000053644 ] } },
{ "type": "Feature", "properties": { "SCHID": "02740083", "NAME": "John F Kennedy School", "ADDRESS": "5 Cherry Street", "TOWN_MAIL": "Somerville", "TOWN": "SOMERVILLE", "ZIPCODE": "02144", "PHONE": "617-629-5440", "GRADES": "PK,K,01,02,03,04,05,06,07,08", "TYPE": "ELE", "TYPE_DESC": "Public Elementary", "DIST_NAME": "Somerville", "DIST_CODE": "02740000", "MA_ADDR_ID": 4213863, "TYPE_DESC2": null }, "geometry": { "type": "Point", "coordinates": [ 231658.186599999666214, 904391.220600001513958 ] } },
{ "type": "Feature", "properties": { "SCHID": "02740075", "NAME": "Arthur D Healey School", "ADDRESS": "5 Meacham Street", "TOWN_MAIL": "Somerville", "TOWN": "SOMERVILLE", "ZIPCODE": "02145", "PHONE": "617-629-5420", "GRADES": "PK,K,01,02,03,04,05,06,07,08", "TYPE": "ELE", "TYPE_DESC": "Public Elementary", "DIST_NAME": "Somerville", "DIST_CODE": "02740000", "MA_ADDR_ID": 3221252, "TYPE_DESC2": null }, "geometry": { "type": "Point", "coordinates": [ 233314.118600003421307, 905303.284000001847744 ] } },
{ "type": "Feature", "properties": { "SCHID": "02740825", "NAME": "St. Theresa of the Child Jesus School", "ADDRESS": "192 Summer Street", "TOWN_MAIL": "Somerville", "TOWN": "SOMERVILLE", "ZIPCODE": "02143", "PHONE": "617-666-9116", "GRADES": "PK,K,01,02,03,04,05,06,07,08", "TYPE": "PRI", "TYPE_DESC": "Private", "DIST_NAME": null, "DIST_CODE": null, "MA_ADDR_ID": 3226049, "TYPE_DESC2": null }, "geometry": { "type": "Point", "coordinates": [ 232216.694799996912479, 904125.919799998402596 ] } },
{ "type": "Feature", "properties": { "SCHID": "02740120", "NAME": "Winter Hill Community School", "ADDRESS": "8 Bonair Street", "TOWN_MAIL": "Somerville", "TOWN": "SOMERVILLE", "ZIPCODE": "02145", "PHONE": "617-629-5680", "GRADES": "PK,K,01,02,03,04,05,06,07,08", "TYPE": "ELE", "TYPE_DESC": "Public Elementary", "DIST_NAME": "Somerville", "DIST_CODE": "02740000", "MA_ADDR_ID": 3213032, "TYPE_DESC2": null }, "geometry": { "type": "Point", "coordinates": [ 233961.722099997103214, 904201.052700001746416 ] } },
{ "type": "Feature", "properties": { "SCHID": "02740087", "NAME": "Albert F. Argenziano School at Lincoln Park", "ADDRESS": "290 Washington Street", "TOWN_MAIL": "Somerville", "TOWN": "SOMERVILLE", "ZIPCODE": "02143", "PHONE": "617-629-5460", "GRADES": "PK,K,01,02,03,04,05,06,07,08", "TYPE": "ELE", "TYPE_DESC": "Public Elementary", "DIST_NAME": "Somerville", "DIST_CODE": "02740000", "MA_ADDR_ID": 3220199, "TYPE_DESC2": null }, "geometry": { "type": "Point", "coordinates": [ 233050.974200002849102, 903247.153599999845028 ] } },
{ "type": "Feature", "properties": { "SCHID": "02740111", "NAME": "East Somerville Community School", "ADDRESS": "50 Cross Street", "TOWN_MAIL": "Somerville", "TOWN": "SOMERVILLE", "ZIPCODE": "02145", "PHONE": "617-625-6600", "GRADES": "PK,K,01,02,03,04,05,06,07,08", "TYPE": "ELE", "TYPE_DESC": "Public Elementary", "DIST_NAME": "Somerville", "DIST_CODE": "02740000", "MA_ADDR_ID": 3213747, "TYPE_DESC2": null }, "geometry": { "type": "Point", "coordinates": [ 234058.709799997508526, 904022.267000000923872 ] } },
{ "type": "Feature", "properties": { "SCHID": "02740830", "NAME": "Tufts Educational Day Care Center", "ADDRESS": "165 Holland Street", "TOWN_MAIL": "Somerville", "TOWN": "SOMERVILLE", "ZIPCODE": "02144", "PHONE": "617-627-3412", "GRADES": "PK,K", "TYPE": "SPU", "TYPE_DESC": "Special Education (Unapproved)", "DIST_NAME": null, "DIST_CODE": null, "MA_ADDR_ID": 3212038, "TYPE_DESC2": null }, "geometry": { "type": "Point", "coordinates": [ 230842.402800001204014, 905695.338599998503923 ] } }
]
}
